{
  "airports": [
    {"city": "Ankara", "icao": "LTAC", "iata": "ESB", "name": "Ankara Esenboğa Havalimanı", "type": "Sivil", "year": 1955, "lat": 40.1281, "lon": 32.9950, "region": "İç Anadolu", "flights": "IST;SAW;TEQ;CKZ;EDO;ADB;BJV;DLM;AYT;GZP;COV;HTY;GZT;KCM;GNY;ADF;MLX;DIY;NKT;BAL;EZS;YKO;BGG;MSR;VAN;ERC;AJI;EGZ;IGD;KSY;RZV;TZX;OGU;SZF"},
    {"city": "Antalya", "icao": "LTAI", "iata": "AYT", "name": "Antalya Havalimanı", "type": "Sivil/Askerî", "year": 1960, "lat": 36.9003, "lon": 30.7928, "region": "Akdeniz", "flights": "IST;SAW;AYT;ADB;ESB;YEI;BJV;SZF;TZX;RZV;ASR;ERZ;EZS;MSR;VAN;DIY;GNY;MQM;GZT;COV"},
    {"city": "Alanya", "icao": "LTFG", "iata": "GZP", "name": "Gazipaşa Havalimanı", "type": "Sivil", "year": 2009, "lat": 36.2992, "lon": 32.3014, "region": "Akdeniz", "flights": "IST;SAW;ESB"},
    {"city": "Balıkesir", "icao": "LTFD", "iata": "EDO", "name": "Balıkesir Koca Seyit Havalimanı", "type": "Sivil", "year": 1997, "lat": 39.5525, "lon": 27.0103, "region": "Marmara", "flights": "IST;SAW;ESB"},
    {"city": "Bursa", "icao": "LTBR", "iata": "YEI", "name": "Bursa Yenişehir Havalimanı", "type": "Sivil/Askerî", "year": 2000, "lat": 40.2558, "lon": 29.5620, "region": "Marmara", "flights": "AYT;DIY;MSR;ERZ;TZX"},
    {"city": "Çanakkale", "icao": "LTBH", "iata": "CKZ", "name": "Çanakkale Havalimanı", "type": "Sivil/Askerî", "year": 1995, "lat": 40.1375, "lon": 26.4308, "region": "Marmara", "flights": "ESB"},
    {"city": "Denizli", "icao": "LTAY", "iata": "DNZ", "name": "Denizli Çardak Havalimanı", "type": "Sivil/Askerî", "year": 1991, "lat": 37.7878, "lon": 29.7050, "region": "Ege", "flights": "IST;SAW"},
    {"city": "Diyarbakır", "icao": "LTCC", "iata": "DIY", "name": "Diyarbakır Havalimanı", "type": "Sivil/Askerî", "year": 1952, "lat": 37.9011, "lon": 40.1858, "region": "Güneydoğu Anadolu", "flights": "IST;SAW;TZX;ESB;YEI;ADB;AYT"},
    {"city": "Elazığ", "icao": "LTCA", "iata": "EZS", "name": "Elazığ Havalimanı", "type": "Sivil/Askerî", "year": 1940, "lat": 38.5975, "lon": 39.2814, "region": "Doğu Anadolu", "flights": "IST;SAW;ESB;ADB;AYT"},
    {"city": "Erzurum", "icao": "LTCE", "iata": "ERZ", "name": "Erzurum Havalimanı", "type": "Sivil/Askerî", "year": 1966, "lat": 39.9558, "lon": 41.1706, "region": "Doğu Anadolu", "flights": "IST;SAW;ESB;ADB;AYT;YEI"},
    {"city": "Eskişehir", "icao": "LTBY", "iata": "AOE", "name": "Hasan Polatkan Havalimanı", "type": "Sivil", "year": 1989, "lat": 39.8125, "lon": 30.5281, "region": "İç Anadolu", "flights": ""},
    {"city": "Gaziantep", "icao": "LTAJ", "iata": "GZT", "name": "Gaziantep Havalimanı", "type": "Sivil", "year": 1976, "lat": 36.9478, "lon": 37.4789, "region": "Güneydoğu Anadolu", "flights": "IST;SAW;ESB;ADB;AYT;TZX"},
    {"city": "Hatay", "icao": "LTDA", "iata": "HTY", "name": "Hatay Havalimanı", "type": "Sivil", "year": 2007, "lat": 36.3722, "lon": 36.2986, "region": "Akdeniz", "flights": "IST;SAW;ESB;ADB"},
    {"city": "Isparta", "icao": "LTFC", "iata": "ISE", "name": "Isparta Süleyman Demirel Havalimanı", "type": "Sivil", "year": 1997, "lat": 37.8558, "lon": 30.3669, "region": "Akdeniz", "flights": "IST"},
    {"city": "İstanbul", "icao": "LTFM", "iata": "IST", "name": "İstanbul Havalimanı", "type": "Sivil", "year": 2018, "lat": 41.2608, "lon": 28.7422, "region": "Marmara", "flights": "NOP;ONQ;SZF;KFS;OGU;EDO;ADB;BJV;DLM;AYT;GZP;COV;HTY;GZT;KCM;GNY;ADF;MLX;DIY;NKT;BAL;EZS;YKO;BGG;MSR;VAN;ERC;AJI;EGZ;IGD;KSY;RZV;TZX;OGU;SZF"},
    {"city": "İstanbul", "icao": "LTFJ", "iata": "SAW", "name": "Sabiha Gökçen Havalimanı", "type": "Sivil", "year": 2001, "lat": 40.8942, "lon": 29.3083, "region": "Marmara", "flights": "NOP;EDO;ADB;BJV;DLM;AYT;GZP;COV;HTY;GZT;KCM;GNY;ADF;MLX;DIY;NKT;BAL;EZS;YKO;BGG;MSR;VAN;ERC;AJI;EGZ;IGD;KSY;RZV;TZX;OGU;SZF"},
    {"city": "İzmir", "icao": "LTBJ", "iata": "ADB", "name": "Adnan Menderes Havalimanı", "type": "Sivil", "year": 1987, "lat": 38.2892, "lon": 27.1550, "region": "Ege", "flights": "IST;SAW;SZF;ESB;TZX;OGU;RZV;KSY;VAS;ERZ;AJI;MSR;EZS;VAN;MLX;BAL;DIY;GNY;MQM;GZT;HTY;COV;AYT;DLM;ASR;KYA;NAV"},
    {"city": "Kars", "icao": "LTCF", "iata": "KSY", "name": "Kars Harakani Havalimanı", "type": "Sivil", "year": 1988, "lat": 40.5622, "lon": 43.1147, "region": "Doğu Anadolu", "flights": "ADB;ESB;IST;SAW"},
    {"city": "Kayseri", "icao": "LTAU", "iata": "ASR", "name": "Erkilet Havalimanı", "type": "Sivil/Askerî", "year": 1998, "lat": 38.7703, "lon": 35.4953, "region": "İç Anadolu", "flights": "IST;SAW;ADB;AYT"},
    {"city": "Konya", "icao": "LTAN", "iata": "KYA", "name": "Konya Havalimanı", "type": "Sivil/Askerî", "year": 2000, "lat": 37.9806, "lon": 32.5625, "region": "İç Anadolu", "flights": "IST;SAW;ADB"},
    {"city": "Kütahya", "icao": "LTBZ", "iata": "KZR", "name": "Zafer Havalimanı", "type": "Sivil", "year": 2012, "lat": 39.1114, "lon": 30.1300, "region": "Ege", "flights": "IST"},
    {"city": "Malatya", "icao": "LTAT", "iata": "MLX", "name": "Malatya Havalimanı", "type": "Sivil/Askerî", "year": 1941, "lat": 38.4322, "lon": 38.0831, "region": "Doğu Anadolu", "flights": "IST;SAW;ESB;ADB"},
    {"city": "Muğla", "icao": "LTBS", "iata": "DLM", "name": "Dalaman Havalimanı", "type": "Sivil/Askerî", "year": 1981, "lat": 36.7125, "lon": 28.7914, "region": "Ege", "flights": "IST;SAW;ADB;ESB"},
    {"city": "Muğla", "icao": "LTFE", "iata": "BJV", "name": "Milas-Bodrum Havalimanı", "type": "Sivil/Askerî", "year": 1998, "lat": 37.2494, "lon": 27.6647, "region": "Ege", "flights": "IST;SAW;ESB;COV"},
    {"city": "Mersin", "icao": "LTDB", "iata": "COV", "name": "Çukurova Uluslararası Havalimanı", "type": "Sivil", "year": 2024, "lat": 36.8996, "lon": 35.0628, "region": "Akdeniz", "flights": "IST;SAW;ESB;ADB;BJV;AYT;TZX;VAN"},
    {"city": "Nevşehir", "icao": "LTAZ", "iata": "NAV", "name": "Nevşehir Kapadokya Havalimanı", "type": "Sivil", "year": 1998, "lat": 38.7753, "lon": 34.5267, "region": "İç Anadolu", "flights": "IST;SAW;ADB"},
    {"city": "Ordu-Giresun", "icao": "LTCB", "iata": "OGU", "name": "Ordu-Giresun Havalimanı", "type": "Sivil", "year": 2015, "lat": 40.9672, "lon": 38.0819, "region": "Karadeniz", "flights": "IST;SAW;ADB;ESB"},
    {"city": "Rize-Artvin", "icao": "LTFO", "iata": "RZV", "name": "Rize-Artvin Havalimanı", "type": "Sivil", "year": 2022, "lat": 41.1692, "lon": 40.8289, "region": "Karadeniz", "flights": "IST;SAW;AYT;ADB;ESB"},
    {"city": "Samsun", "icao": "LTFH", "iata": "SZF", "name": "Samsun Çarşamba Havalimanı", "type": "Sivil", "year": 1998, "lat": 41.2656, "lon": 36.5486, "region": "Karadeniz", "flights": "IST;SAW;AYT;ADB;ESB"},
    {"city": "Sinop", "icao": "LTCM", "iata": "NOP", "name": "Sinop Havalimanı", "type": "Sivil", "year": 1993, "lat": 42.0158, "lon": 35.0664, "region": "Karadeniz", "flights": "IST;SAW"},
    {"city": "Sivas", "icao": "LTAR", "iata": "VAS", "name": "Sivas Nuri Demirağ Havalimanı", "type": "Sivil", "year": 1957, "lat": 39.8142, "lon": 36.9025, "region": "İç Anadolu", "flights": "IST;SAW;ADB"},
    {"city": "Şanlıurfa", "icao": "LTCS", "iata": "GNY", "name": "Şanlıurfa GAP Havalimanı", "type": "Sivil", "year": 2007, "lat": 37.4567, "lon": 38.9083, "region": "Güneydoğu Anadolu", "flights": "IST;SAW;ESB;ADB;AYT"},
    {"city": "Tekirdağ", "icao": "LTBU", "iata": "TEQ", "name": "Tekirdağ Çorlu Havalimanı", "type": "Sivil/Askerî", "year": 1998, "lat": 41.1294, "lon": 27.9064, "region": "Marmara", "flights": "ESB"},
    {"city": "Trabzon", "icao": "LTCG", "iata": "TZX", "name": "Trabzon Havalimanı", "type": "Sivil", "year": 1957, "lat": 40.9958, "lon": 39.7853, "region": "Karadeniz", "flights": "IST;SAW;YEI;ESB;ADB;AYT;COV;DIY;GZT"},
    {"city": "Van", "icao": "LTCI", "iata": "VAN", "name": "Van Ferit Melen Havalimanı", "type": "Sivil/Askerî", "year": 1943, "lat": 38.4686, "lon": 43.3319, "region": "Doğu Anadolu", "flights": "IST;SAW;AYT;ADB;COV;ESB"},
    {"city": "Zonguldak", "icao": "LTAS", "iata": "ONQ", "name": "Zonguldak Havalimanı", "type": "Sivil", "year": 1999, "lat": 41.5064, "lon": 32.0886, "region": "Karadeniz", "flights": "IST"},
    {"city": "Hakkari", "icao": "YKO", "iata": "YKO", "name": "Hakkari Havalimanı", "type": "Sivil", "year": 1990, "lat": 37.574, "lon": 43.740, "region": "Doğu Anadolu", "flights": "IST;ESB"},
    {"city": "Siirt", "icao": "SXZ", "iata": "SXZ", "name": "Siirt Havalimanı", "type": "Sivil", "year": 1990, "lat": 37.933, "lon": 41.966, "region": "Güneydoğu Anadolu", "flights": "IST;ESB"},
    {"city": "Şırnak", "icao": "GNY", "iata": "NKT", "name": "Şırnak Havalimanı", "type": "Sivil", "year": 2007, "lat": 37.454, "lon": 42.481, "region": "Güneydoğu Anadolu", "flights": "IST;SAW;ESB"},
    {"city": "Bingöl", "icao": "BGG", "iata": "BGG", "name": "Bingöl Havalimanı", "type": "Sivil", "year": 2009, "lat": 38.8850, "lon": 40.4961, "region": "Doğu Anadolu", "flights": "IST;SAW;ESB"},
    {"city": "Batman", "icao": "BAL", "iata": "BAL", "name": "Batman Havalimanı", "type": "Sivil", "year": 1997, "lat": 37.9333, "lon": 41.1167, "region": "Güneydoğu Anadolu", "flights": "IST;SAW;ESB;ADB"},
    {"city": "Amasya", "icao": "MZH", "iata": "MZH", "name": "Amasya Merzifon Havalimanı", "type": "Sivil", "year": 1995, "lat": 40.8267, "lon": 35.4972, "region": "Karadeniz", "flights": "IST;SAW"},
    {"city": "Erzincan", "icao": "ERC", "iata": "ERC", "name": "Erzincan Havalimanı", "type": "Sivil", "year": 1940, "lat": 39.7500, "lon": 39.5000, "region": "Doğu Anadolu", "flights": "IST;SAW"},
    {"city": "Tokat", "icao": "LTAW", "iata": "TJK", "name": "Tokat Havalimanı", "type": "Sivil", "year": null, "lat": 40.3117, "lon": 36.3736, "region": "Karadeniz", "flights": "IST;SAW"},
    {"city": "Kahramanmaraş", "icao": "LTCN", "iata": "KCM", "name": "Kahramanmaraş Havalimanı", "type": "Sivil", "year": null, "lat": 37.5383, "lon": 36.9519, "region": "Akdeniz", "flights": "IST;SAW;ESB"}
  ]
}